City_ID,City,Country,Lat,Lng,Max Temp,Humidity,Cloudiness,Wind Speed,Current Description
0,Busselton,AU,-33.65,115.33,69.01,62,53,5.99,broken clouds
1,Hermanus,ZA,-34.42,19.23,55.0,85,0,1.99,clear sky
2,Abu Samrah,SY,35.3,37.18,86.05,13,78,13.91,broken clouds
3,Namibe,AO,-15.2,12.15,70.5,69,0,4.99,clear sky
4,Ambovombe,MG,-25.17,46.08,84.02,43,0,7.09,clear sky
5,Bam,IR,29.11,58.36,75.07,19,0,13.76,clear sky
6,Vaini,TO,-21.2,-175.2,75.2,88,40,8.05,scattered clouds
7,Broken Hill,AU,-31.95,141.43,75.2,25,0,11.41,clear sky
8,Cape Town,ZA,-33.93,18.42,64.0,62,20,14.99,few clouds
9,Yellowknife,CA,62.46,-114.35,42.8,93,90,10.29,overcast clouds
10,San Cristobal,VE,7.77,-72.22,64.69,78,7,1.43,clear sky
11,Jamestown,US,42.1,-79.24,60.01,54,1,11.41,clear sky
12,Rabat,MA,33.99,-6.84,66.2,93,90,4.7,mist
13,Goderich,CA,43.75,-81.72,68.0,76,100,1.99,overcast clouds
14,Saurimo,AO,-9.66,20.39,74.5,65,49,5.26,scattered clouds
15,Rikitea,PF,-23.12,-134.97,73.81,80,0,15.48,clear sky
16,Mala Tokmachka,UA,47.54,35.89,59.0,62,100,11.18,haze
17,Vanimo,PG,-2.67,141.3,83.25,75,100,5.77,light rain
18,East London,ZA,-33.02,27.91,59.0,72,20,23.04,light rain
19,Saint-Augustin,CA,51.23,-58.65,33.93,83,100,17.05,overcast clouds
20,Qaanaaq,GL,77.48,-69.36,23.14,84,100,5.59,overcast clouds
21,Saint-Philippe,RE,-21.36,55.77,82.0,74,75,10.29,broken clouds
22,Albany,US,42.6,-73.97,52.0,72,86,3.94,overcast clouds
23,Port Alfred,ZA,-33.59,26.89,59.7,73,94,22.28,moderate rain
24,Leshukonskoye,RU,64.9,45.76,49.51,95,100,6.38,overcast clouds
25,Teguldet,RU,57.31,88.17,34.57,89,100,7.99,overcast clouds
26,Kahului,US,20.89,-156.47,80.6,61,1,11.41,clear sky
27,Hambantota,LK,6.12,81.12,89.6,66,75,23.04,broken clouds
28,Panorama,GR,40.59,23.03,68.0,67,13,2.24,few clouds
29,Ushuaia,AR,-54.8,-68.3,37.4,64,20,10.29,few clouds
30,Adre,TD,13.47,22.2,84.11,35,0,5.06,clear sky
31,Richards Bay,ZA,-28.78,32.04,68.04,72,86,20.83,overcast clouds
32,Bluff,NZ,-46.6,168.33,57.67,66,36,9.78,scattered clouds
33,Verkhnevilyuysk,RU,63.45,120.32,32.61,75,1,5.21,clear sky
34,Kruisfontein,ZA,-34.0,24.73,59.0,78,30,5.99,light rain
35,Hilo,US,19.73,-155.09,75.2,83,1,4.7,clear sky
36,Hamilton,US,39.18,-84.53,66.0,82,90,5.82,overcast clouds
37,Carnarvon,AU,-24.87,113.63,75.2,64,0,21.92,clear sky
38,Fukue,JP,32.69,128.84,69.8,77,75,21.92,broken clouds
39,Chalus,IR,36.66,51.42,68.0,68,40,4.7,scattered clouds
40,Airai,TL,-8.93,125.41,74.95,47,100,7.99,overcast clouds
41,Prince Rupert,CA,54.32,-130.32,48.2,93,90,6.93,overcast clouds
42,Dikson,RU,73.51,80.55,30.33,97,100,16.22,overcast clouds
43,Acapulco,MX,16.86,-99.89,78.6,83,100,3.89,overcast clouds
44,Salinopolis,BR,-0.61,-47.36,77.32,84,0,9.04,clear sky
45,Luderitz,NA,-26.65,15.16,61.32,43,0,16.62,clear sky
46,Bubaque,GW,11.28,-15.83,80.98,79,0,9.15,clear sky
47,Bengkulu,ID,-3.8,102.27,81.27,80,100,7.36,moderate rain
48,New Norfolk,AU,-42.78,147.06,57.99,72,31,6.4,scattered clouds
49,Livani,LV,56.35,26.18,48.07,87,0,3.44,clear sky
50,Puerto Ayora,EC,-0.74,-90.35,66.99,88,98,4.0,overcast clouds
51,Bafata,GW,12.17,-14.75,72.59,98,17,2.21,few clouds
52,Vanavara,RU,60.34,102.28,30.7,95,100,9.26,overcast clouds
53,Punta Arenas,CL,-53.15,-70.92,39.2,69,75,16.11,broken clouds
54,Koungheul,SN,13.98,-14.8,76.03,95,57,7.47,broken clouds
55,Hobart,AU,-42.88,147.33,57.99,50,75,10.29,broken clouds
56,Bredasdorp,ZA,-34.53,20.04,62.6,48,76,16.11,light rain
57,Mataura,NZ,-46.19,168.86,54.16,69,58,5.06,broken clouds
58,Bethel,US,41.37,-73.41,57.0,66,1,3.36,clear sky
59,Atuona,PF,-9.8,-139.03,78.37,78,1,17.87,clear sky
60,Nikolskoye,RU,59.7,30.79,52.0,87,0,6.71,clear sky
61,Kuito,AO,-12.38,16.93,64.4,82,0,5.82,clear sky
62,Alamosa,US,37.47,-105.87,37.4,40,1,9.17,clear sky
63,Birjand,IR,32.87,59.22,62.6,17,0,4.7,clear sky
64,Warren,US,39.43,-84.17,66.2,100,1,4.7,clear sky
65,Shunyi,CN,40.12,116.65,73.0,53,93,4.47,haze
66,Longyearbyen,SJ,78.22,15.64,35.6,74,90,14.99,overcast clouds
67,Codrington,AU,-38.27,141.97,54.1,77,100,12.33,overcast clouds
68,Lompoc,US,34.64,-120.46,57.2,93,90,4.9,overcast clouds
69,Verkhoyansk,RU,67.54,133.38,30.33,82,100,4.9,overcast clouds
70,Coos Bay,US,43.37,-124.22,59.0,87,90,4.7,light rain
71,Bend,US,44.06,-121.32,59.0,51,100,1.99,overcast clouds
72,Faya,SA,18.39,42.45,71.6,11,25,17.22,scattered clouds
73,Touros,BR,-5.2,-35.46,71.6,100,40,4.7,scattered clouds
74,Port Lincoln,AU,-34.73,135.87,60.51,69,0,13.09,clear sky
75,Kodiak,US,57.79,-152.41,41.0,86,90,4.7,overcast clouds
76,Khorramabad,IR,33.49,48.36,71.6,30,0,9.17,moderate rain
77,Yaring,TH,6.87,101.37,87.8,70,40,8.05,heavy intensity rain
78,Gravdal,NO,68.12,13.5,50.0,87,40,14.99,scattered clouds
79,Rolla,US,37.95,-91.77,62.6,93,1,11.41,clear sky
80,Ilulissat,GL,69.22,-51.1,50.0,39,99,25.28,overcast clouds
81,Pochutla,MX,15.74,-96.47,77.0,85,86,3.67,light rain
82,Shimoda,JP,34.67,138.95,66.2,93,75,27.51,shower rain
83,Pitimbu,BR,-7.47,-34.81,71.6,100,79,8.28,broken clouds
84,Baykit,RU,61.67,96.37,32.11,93,100,8.05,overcast clouds
85,Juneau,US,58.3,-134.42,46.0,87,90,4.7,overcast clouds
86,Liaozhong,CN,41.51,122.72,73.4,46,20,13.42,few clouds
87,Tasiilaq,GL,65.61,-37.64,37.4,64,100,19.46,overcast clouds
88,Ossora,RU,59.24,163.07,33.62,85,90,20.49,overcast clouds
89,Vardo,NO,70.37,31.11,47.28,89,13,9.62,few clouds
90,Iracoubo,GF,5.48,-53.2,77.95,87,2,8.1,light rain
91,Ribeira Grande,PT,38.52,-28.7,69.8,88,40,5.82,light intensity shower rain
92,Erenhot,CN,43.65,111.98,53.33,40,100,17.16,light rain
93,Puerto Colombia,CO,10.99,-74.95,84.2,89,40,3.36,scattered clouds
94,Gat,IL,31.61,34.76,81.0,100,0,1.99,clear sky
95,Ovruch,UA,51.32,28.8,57.7,86,86,4.76,overcast clouds
96,Vanersborg,SE,58.38,12.32,46.99,93,100,5.82,moderate rain
97,Umm Lajj,SA,25.02,37.27,95.02,34,0,9.71,clear sky
98,Port Macquarie,AU,-31.43,152.92,70.0,51,0,1.01,clear sky
99,Las Vegas,US,36.17,-115.14,78.8,18,1,6.93,clear sky
100,Igrim,RU,63.19,64.42,43.56,96,100,3.78,overcast clouds
101,Nago,JP,26.59,127.98,84.0,69,90,6.93,overcast clouds
102,Esperance,AU,-33.87,121.9,66.2,82,100,14.99,overcast clouds
103,Uarini,BR,-2.99,-65.11,72.34,96,98,3.15,overcast clouds
104,Cherskiy,RU,68.75,161.3,20.68,95,18,3.15,few clouds
105,Pangody,RU,65.85,74.49,34.05,87,81,8.63,broken clouds
106,Aklavik,CA,68.22,-135.01,28.4,92,90,3.36,mist
107,Ponta Do Sol,PT,32.67,-17.1,68.0,82,75,13.87,broken clouds
108,Butaritari,KI,3.07,172.79,82.56,74,100,13.96,overcast clouds
109,Ahipara,NZ,-35.17,173.17,57.7,76,25,13.35,scattered clouds
110,Waingapu,ID,-9.66,120.26,88.43,53,100,14.0,overcast clouds
111,Port Hardy,CA,50.7,-127.42,50.0,100,90,2.24,moderate rain
112,San Jeronimo,PE,-11.95,-75.28,46.27,66,99,0.6,overcast clouds
113,High Level,CA,58.52,-117.14,41.0,86,90,10.29,light rain
114,Maniitsoq,GL,65.42,-52.9,44.49,61,100,20.78,overcast clouds
115,Barrow,US,71.29,-156.79,28.4,74,90,32.21,overcast clouds
116,Saint George,US,37.1,-113.58,71.6,26,1,3.36,clear sky
117,Bilibino,RU,68.05,166.44,20.17,95,99,2.84,overcast clouds
118,Champasak,LA,14.75,106.0,87.8,66,40,2.24,scattered clouds
119,Thompson,CA,55.74,-97.86,19.4,92,40,0.98,scattered clouds
120,Mbanza-Ngungu,CD,-5.25,14.87,72.93,82,100,6.51,overcast clouds
121,Mar Del Plata,AR,-38.0,-57.56,37.99,93,0,3.36,clear sky
122,Comodoro Rivadavia,AR,-45.87,-67.5,55.4,47,0,19.46,clear sky
123,Lakhdenpokhya,RU,61.52,30.2,52.0,78,2,10.49,clear sky
124,Catuday,PH,16.29,119.81,83.19,76,92,6.51,light rain
125,Leningradskiy,RU,69.38,178.42,33.64,95,100,22.19,light rain
126,Huarmey,PE,-10.07,-78.15,60.93,88,98,2.51,overcast clouds
127,Deputatskiy,RU,69.3,139.9,19.9,90,100,4.68,overcast clouds
128,Palu,ID,-0.89,119.87,80.92,78,89,3.47,light rain
129,Ahuimanu,US,21.44,-157.84,80.6,65,20,9.17,few clouds
130,Haines Junction,CA,60.75,-137.51,36.63,80,100,2.39,overcast clouds
131,Yar-Sale,RU,66.83,70.83,33.4,94,100,13.56,overcast clouds
132,Kavieng,PG,-2.57,150.8,79.47,85,100,10.49,moderate rain
133,Buenos Aires,AR,-34.61,-58.38,57.0,62,0,5.82,clear sky
134,Hervey Bay,AU,-25.3,152.85,77.0,69,0,5.99,clear sky
135,Abnub,EG,27.27,31.15,77.0,73,0,10.29,clear sky
136,Fomboni,KM,-12.28,43.74,79.14,73,0,7.29,clear sky
137,Annau,TM,37.89,58.52,53.6,40,0,4.7,clear sky
138,Castro,BR,-24.79,-50.01,52.32,89,2,6.46,clear sky
139,Kavaratti,IN,10.57,72.64,84.2,79,75,6.93,haze
140,Kapaa,US,22.08,-159.32,80.6,74,40,6.93,scattered clouds
141,Innisfail,AU,-17.53,146.03,76.98,67,0,9.4,clear sky
142,Vestmannaeyjar,IS,63.44,-20.27,44.13,61,0,16.49,clear sky
143,Vilyuysk,RU,63.76,121.62,32.45,76,0,5.1,clear sky
144,Moose Factory,CA,51.26,-80.61,39.2,100,90,6.93,overcast clouds
145,Mahebourg,MU,-20.41,57.7,80.6,69,40,11.41,scattered clouds
146,Marrakesh,MA,31.63,-8.01,62.6,88,40,4.7,scattered clouds
147,Durban,ZA,-29.86,31.03,66.99,59,75,11.41,broken clouds
148,Gejiu,CN,23.31,103.16,66.0,69,45,3.33,scattered clouds
149,Bambanglipuro,ID,-7.95,110.28,82.36,73,100,15.12,light rain
150,Ribas Do Rio Pardo,BR,-20.44,-53.76,74.46,69,98,10.83,overcast clouds
151,Pisco,PE,-13.7,-76.22,62.6,88,90,8.05,overcast clouds
152,Champerico,GT,14.3,-91.92,64.99,90,90,6.2,overcast clouds
153,Okhotsk,RU,59.38,143.3,41.79,58,0,1.19,clear sky
154,Norman Wells,CA,65.28,-126.83,35.6,86,75,3.36,broken clouds
155,Nova Olinda Do Norte,BR,-3.89,-59.09,74.64,70,44,1.12,scattered clouds
156,Lunenburg,CA,44.38,-64.32,48.99,89,98,1.01,overcast clouds
157,Fort Nelson,CA,58.81,-122.7,39.2,93,90,2.24,light intensity shower rain
158,Turukhansk,RU,65.82,87.98,25.03,94,0,5.14,clear sky
159,Conde,BR,-7.26,-34.91,71.6,100,60,6.89,broken clouds
160,San Patricio,US,28.02,-97.52,79.0,88,20,5.82,few clouds
161,Port Elizabeth,ZA,-33.92,25.57,60.8,67,40,16.11,scattered clouds
162,Sao Joao Da Barra,BR,-21.64,-41.05,72.01,91,100,4.14,moderate rain
163,Nokaneng,BW,-19.67,22.27,85.39,22,0,11.27,clear sky
164,Tianpeng,CN,30.99,103.94,72.0,79,77,3.83,broken clouds
165,Wewak,PG,-3.55,143.63,80.13,85,100,12.12,light rain
166,Horoatu Crasnei,RO,47.13,22.88,50.0,93,100,1.36,overcast clouds
167,Mincivan,AZ,39.03,46.72,64.45,45,0,3.96,clear sky
168,Qaqortoq,GL,60.72,-46.03,48.2,39,99,24.16,light rain
169,Znamenskoye,RU,57.13,73.83,41.67,91,100,4.88,overcast clouds
170,Tuktoyaktuk,CA,69.45,-133.04,30.33,95,98,8.7,overcast clouds
171,Virginia Beach,US,36.85,-75.98,66.0,83,100,10.09,overcast clouds
172,Miandrivazo,MG,-19.52,45.47,93.69,32,0,2.59,clear sky
173,Tadine,NC,-21.55,167.88,74.26,86,31,12.48,scattered clouds
174,Lata,PT,40.16,-8.33,60.01,97,0,1.99,clear sky
175,Souillac,MU,-20.52,57.52,80.6,69,40,11.41,scattered clouds
176,Irbeyskoye,RU,55.64,95.45,36.0,80,100,16.91,overcast clouds
177,Iskateley,RU,67.68,53.15,46.36,93,97,7.25,overcast clouds
178,Zhezkazgan,KZ,47.8,67.71,46.72,47,14,2.73,few clouds
179,Harper,LR,4.38,-7.72,76.62,89,38,6.31,light rain
180,Talnakh,RU,69.49,88.4,26.6,86,40,6.71,light snow
181,Ende,ID,-8.84,121.66,86.65,58,92,4.47,light rain
182,Tyret Pervaya,RU,53.67,102.31,37.42,62,100,6.62,overcast clouds
183,Grand-Lahou,CI,5.14,-5.02,75.85,89,42,6.98,light rain
184,Alofi,NU,-19.06,-169.92,73.4,100,0,6.93,clear sky
185,Palmer,US,42.16,-72.33,57.0,71,1,10.29,clear sky
186,Yatou,CN,37.15,122.38,67.86,53,100,4.47,overcast clouds
187,Chuy,UY,-33.7,-53.46,44.35,90,2,7.47,clear sky
188,Coihaique,CL,-45.58,-72.07,40.41,86,61,5.82,broken clouds
189,Yamethin,MM,20.43,96.15,90.93,54,0,5.41,clear sky
190,Lebu,CL,-37.62,-73.65,50.99,86,62,13.13,broken clouds
191,Yelan,RU,50.95,43.74,56.5,40,82,15.7,broken clouds
192,Puerto Escondido,MX,15.85,-97.07,78.55,77,49,4.27,scattered clouds
193,Hagere Hiywet,ET,8.98,37.85,68.22,51,0,7.61,clear sky
194,Mayor Pablo Lagerenza,PY,-19.93,-60.77,77.63,47,10,7.18,clear sky
195,Victoria,HK,22.29,114.16,82.0,54,7,8.01,clear sky
196,Antofagasta,CL,-23.65,-70.4,59.0,72,90,8.05,overcast clouds
197,Gondanglegi,ID,-7.75,112.01,89.17,55,100,16.53,moderate rain
198,Kenai,US,60.55,-151.26,41.0,75,1,5.82,clear sky
199,Lagoa,PT,39.05,-27.98,70.23,84,0,7.74,clear sky
200,Wadi Musa,JO,30.32,35.48,82.85,18,0,5.53,clear sky
201,Morristown,US,36.21,-83.29,64.0,100,75,2.73,broken clouds
202,Vao,NC,-22.67,167.48,73.08,87,9,18.05,clear sky
203,Ust-Tsilma,RU,65.44,52.15,48.15,92,97,4.7,overcast clouds
204,Camopi,GF,3.17,-52.32,70.5,97,26,1.25,scattered clouds
205,Durazno,UY,-33.41,-56.5,43.43,83,0,4.65,clear sky
206,Gerede,TR,40.8,32.2,55.65,76,18,4.63,light rain
207,Burgeo,CA,47.62,-57.62,41.22,68,54,23.33,broken clouds
208,Ampanihy,MG,-24.7,44.75,91.42,22,0,10.36,clear sky
209,Galesong,ID,-5.32,119.37,86.0,70,40,11.41,scattered clouds
210,Narsaq,GL,60.92,-46.05,48.2,39,100,24.16,overcast clouds
211,Kantunilkin,MX,21.09,-87.45,80.6,88,40,3.36,scattered clouds
212,Tambopata,PE,-12.73,-69.18,80.29,44,100,1.97,overcast clouds
213,Bay Roberts,CA,47.6,-53.26,44.01,62,58,20.92,broken clouds
214,Lorengau,PG,-2.02,147.27,76.46,90,100,5.01,moderate rain
215,Arraial Do Cabo,BR,-22.97,-42.03,71.67,89,100,20.36,light rain
216,Severo-Kurilsk,RU,50.68,156.12,47.12,76,4,14.83,clear sky
217,Exeter,GB,50.72,-3.53,43.0,96,0,8.9,clear sky
218,Iqaluit,CA,63.75,-68.51,37.4,74,90,10.29,light rain
219,Kidal,ML,18.44,1.41,85.46,14,100,4.09,overcast clouds
220,Belmonte,BR,-15.86,-38.88,78.8,78,75,10.29,broken clouds
221,Ostrovnoy,RU,68.05,39.51,49.39,83,88,15.48,overcast clouds
222,Nanortalik,GL,60.14,-45.24,44.02,75,91,24.27,overcast clouds
223,Ixtapa,MX,20.7,-105.2,81.0,94,86,2.33,overcast clouds
224,Maraba,BR,-5.37,-49.12,80.6,83,99,3.36,moderate rain
225,Marovoay,MG,-16.1,46.63,89.6,49,20,4.7,few clouds
226,Koshurnikovo,RU,54.17,93.3,29.57,98,100,10.69,overcast clouds
227,Sagua La Grande,CU,22.81,-80.08,75.2,94,20,2.24,few clouds
228,Provideniya,RU,64.38,-173.3,39.63,86,100,11.68,overcast clouds
229,Porto Santo,PT,33.07,-16.34,68.0,82,40,11.41,scattered clouds
230,Jacareacanga,BR,-6.22,-57.75,76.93,66,97,0.16,overcast clouds
231,Canutama,BR,-6.53,-64.38,75.27,75,7,0.25,clear sky
232,Hasaki,JP,35.73,140.83,66.2,93,75,10.29,heavy intensity rain
233,Aasiaat,GL,68.71,-52.87,41.31,66,100,22.08,overcast clouds
234,Priiskovyy,RU,51.93,116.63,45.81,58,95,6.15,overcast clouds
235,Half Moon Bay,US,37.46,-122.43,61.0,82,1,3.36,clear sky
236,Rancho Palos Verdes,US,33.74,-118.39,66.99,86,58,1.01,broken clouds
237,Camacha,PT,33.08,-16.33,68.0,82,40,11.41,scattered clouds
238,Asau,RO,46.43,26.4,57.99,90,93,2.62,light rain
239,Mushie,CD,-3.02,16.9,77.85,84,3,4.36,clear sky
240,Springbok,ZA,-29.66,17.89,51.37,47,0,17.78,clear sky
241,Necochea,AR,-38.55,-58.74,41.56,76,0,8.5,clear sky
242,Sumenep,ID,-7.02,113.87,86.94,59,100,13.15,moderate rain
243,Tairua,NZ,-37.02,175.85,59.0,67,53,11.01,broken clouds
244,Boras,SE,57.72,12.94,46.99,93,75,5.82,moderate rain
245,Katsuura,JP,35.13,140.3,66.2,88,90,12.75,shower rain
246,Sisimiut,GL,66.94,-53.67,42.76,64,100,14.63,overcast clouds
247,Caxias,PT,38.7,-9.28,63.0,82,20,19.46,few clouds
248,Makakilo City,US,21.35,-158.09,80.6,69,1,4.7,clear sky
249,Gazanjyk,TM,39.24,55.52,58.53,33,0,22.1,clear sky
250,Solnechnyy,RU,50.72,136.63,51.85,73,33,7.65,scattered clouds
251,Chokurdakh,RU,70.63,147.92,24.08,95,97,8.61,overcast clouds
252,Dudinka,RU,69.41,86.18,26.6,86,40,6.71,light snow
253,Taoudenni,ML,22.68,-3.98,85.5,24,0,13.47,clear sky
254,Kiunga,PG,-6.12,141.29,80.94,94,93,2.75,moderate rain
255,Nishihara,JP,26.18,127.76,84.0,65,40,12.75,scattered clouds
256,Varadero,CU,23.15,-81.25,71.6,100,20,3.36,few clouds
257,Solano,US,38.23,-121.95,64.4,77,1,16.11,clear sky
258,Khatanga,RU,71.97,102.5,20.97,97,96,8.66,overcast clouds
259,Aktau,KZ,43.65,51.2,53.6,32,0,26.84,clear sky
260,Jaisalmer,IN,26.91,70.92,96.71,14,0,3.6,clear sky
261,Arlit,NE,18.74,7.39,91.62,27,72,9.95,broken clouds
262,Megion,RU,61.03,76.11,35.6,69,100,2.24,overcast clouds
263,Chimoio,MZ,-19.12,33.48,75.2,69,49,6.35,smoke
264,Hithadhoo,MV,-0.6,73.08,83.17,73,4,12.19,light rain
265,Nuevitas,CU,21.55,-77.26,77.79,87,0,6.17,clear sky
266,Mana,GF,5.66,-53.78,77.47,88,10,6.98,light rain
267,Matoury,GF,4.85,-52.33,73.4,100,0,5.57,clear sky
268,Mount Isa,AU,-20.73,139.5,89.6,8,99,10.29,overcast clouds
269,Saint-Joseph,RE,-21.37,55.62,82.0,74,75,10.29,broken clouds
270,Isla Mujeres,MX,21.23,-86.73,80.6,88,40,3.36,scattered clouds
271,Avarua,CK,-21.21,-159.78,73.4,94,98,2.24,overcast clouds
272,Maningrida,AU,-12.07,134.27,85.17,60,78,11.41,broken clouds
273,Guerrero Negro,MX,27.98,-114.06,67.75,89,0,10.8,clear sky
274,Zhigansk,RU,66.77,123.37,28.18,90,0,11.14,clear sky
275,Walvis Bay,NA,-22.96,14.51,55.99,87,0,8.05,clear sky
276,Miri,MY,4.41,114.01,87.8,66,40,4.7,scattered clouds
277,Hakkari,TR,37.58,44.17,48.2,28,0,2.24,clear sky
278,Dingli,MT,35.86,14.38,73.99,83,20,4.7,few clouds
279,Urdoma,RU,61.75,48.54,48.24,89,100,4.94,light rain
280,Araouane,ML,18.9,-3.53,87.49,20,0,4.72,clear sky
281,Bambous Virieux,MU,-20.34,57.76,81.0,69,40,11.41,scattered clouds
282,Mount Gambier,AU,-37.83,140.77,60.8,59,90,16.11,overcast clouds
283,Bulgan,MN,48.81,103.53,32.34,67,0,11.41,clear sky
284,Pangnirtung,CA,66.15,-65.71,35.76,84,100,6.11,overcast clouds
285,Flinders,AU,-34.58,150.86,73.4,27,40,19.46,scattered clouds
286,Mildura,AU,-34.2,142.15,80.6,19,40,14.99,scattered clouds
287,Atbasar,KZ,51.8,68.33,46.94,60,100,11.61,overcast clouds
288,Yulara,AU,-25.24,130.99,87.8,8,0,13.87,clear sky
289,Sao Jose Da Coroa Grande,BR,-8.9,-35.15,75.81,86,99,9.64,overcast clouds
290,Klaksvik,FO,62.23,-6.59,44.6,100,100,21.92,light rain
291,Muli,MV,2.92,73.57,83.14,75,83,14.54,light rain
292,Lima,PE,-12.04,-77.03,62.6,82,90,10.29,overcast clouds
293,Alta Floresta,BR,-9.88,-56.09,79.25,49,75,2.93,broken clouds
294,Timizart,DZ,36.8,4.27,65.3,75,30,3.09,scattered clouds
295,Karratha,AU,-20.74,116.85,85.64,38,19,16.67,few clouds
296,Olafsvik,IS,64.89,-23.71,44.19,76,4,3.0,clear sky
297,Manavalakurichi,IN,8.13,77.3,84.2,89,75,1.12,moderate rain
298,Te Anau,NZ,-45.42,167.72,47.17,88,100,1.5,overcast clouds
299,Luquillo,PR,18.37,-65.72,78.8,88,75,3.36,light rain
300,Surab,PK,28.49,66.26,77.0,15,0,10.51,clear sky
301,Katherine,AU,-14.47,132.27,100.4,15,64,14.99,broken clouds
302,Polunochnoye,RU,60.87,60.42,47.46,82,100,7.99,light rain
303,Trairi,BR,-3.28,-39.27,75.79,85,93,5.61,overcast clouds
304,Laizhou,CN,37.17,119.92,71.49,37,96,4.54,light rain
305,Dwarka,IN,22.24,68.97,87.22,61,80,9.78,broken clouds
306,Brae,GB,60.4,-1.35,41.0,86,40,5.82,scattered clouds
307,College,US,64.86,-147.8,37.4,90,1,4.7,clear sky
308,Bargarh,IN,21.33,83.62,88.61,66,100,3.96,heavy intensity rain
309,Mahibadhoo,MV,3.78,72.97,83.37,74,100,14.09,light rain
310,Atherton,GB,53.52,-2.49,51.01,85,99,11.01,light rain
311,Magistralnyy,RU,56.17,107.45,35.46,65,48,4.83,scattered clouds
312,Korla,CN,41.76,86.15,66.0,77,2,1.99,clear sky
313,Yinchuan,CN,38.47,106.27,67.82,40,0,0.85,clear sky
314,Tual,ID,-5.67,132.75,80.87,76,100,18.16,overcast clouds
315,Wielun,PL,51.22,18.57,55.99,83,100,7.92,overcast clouds
316,Halle,DE,51.5,12.0,51.01,93,100,8.05,overcast clouds
317,Westport,US,41.14,-73.36,64.4,55,1,17.22,clear sky
318,Guymon,US,36.68,-101.48,57.2,47,1,6.89,clear sky
319,Dalvik,IS,65.97,-18.53,28.4,92,0,3.36,clear sky
320,Auki,SB,-8.77,160.7,82.38,78,92,4.61,overcast clouds
321,Itoman,JP,26.12,127.67,84.0,74,75,5.82,broken clouds
322,Dukat,RU,62.55,155.55,21.76,87,48,3.47,scattered clouds
323,Devils Lake,US,48.11,-98.87,39.2,80,1,4.7,clear sky
324,Bandarbeyla,SO,9.49,50.81,82.29,52,70,3.8,broken clouds
325,Saint Anthony,US,45.02,-93.22,61.0,62,1,3.36,clear sky
326,Fortuna,US,40.6,-124.16,60.01,93,75,6.93,broken clouds
327,Elbistan,TR,38.21,37.2,70.5,23,0,3.33,clear sky
328,Saskylakh,RU,71.92,114.08,15.62,96,91,5.93,light snow
329,Puerto Leguizamo,CO,-0.19,-74.78,70.48,84,1,2.19,clear sky
330,Laguna,US,38.42,-121.42,62.6,72,1,4.7,clear sky
331,Podares,MK,41.61,22.54,52.0,89,46,3.76,scattered clouds
332,Pokosnoye,RU,55.53,101.05,32.94,86,100,13.31,overcast clouds
333,Northam,GB,51.03,-4.22,53.01,78,2,8.01,clear sky
334,Bella Vista,US,36.43,-94.23,64.4,93,1,4.7,clear sky
335,Shakawe,BW,-18.37,21.85,85.44,13,0,4.0,clear sky
336,Pevek,RU,69.7,170.31,33.37,90,100,18.3,overcast clouds
337,Arman,RU,59.7,150.17,38.62,69,0,4.18,clear sky
338,Dickinson,US,29.46,-95.05,72.0,78,1,3.36,clear sky
339,Birao,CF,10.28,22.79,79.75,78,1,4.56,clear sky
340,Moro,PK,26.66,68.0,93.2,49,0,4.7,smoke
341,Harmanli,BG,41.93,25.9,64.0,70,19,4.97,few clouds
342,Grinnell,US,41.74,-92.72,71.6,68,1,10.29,clear sky
343,Inongo,CD,-1.95,18.27,74.37,83,100,2.86,light rain
344,Kampong Thum,KH,12.71,104.89,83.43,77,100,5.44,light rain
345,Dongning,CN,44.06,131.12,66.34,48,0,4.18,clear sky
346,Isangel,VU,-19.55,169.27,80.6,83,40,11.41,scattered clouds
347,Ponta Delgada,PT,37.73,-25.67,66.2,93,20,8.05,few clouds
348,Castro Alves,BR,-12.77,-39.43,71.71,87,100,3.02,overcast clouds
349,Grindavik,IS,63.84,-22.43,41.0,86,0,1.12,clear sky
350,Leh,IN,34.17,77.58,50.43,33,0,5.37,clear sky
351,Sungairaya,ID,0.7,108.9,86.27,64,100,6.78,light rain
352,Mapiripan,CO,2.89,-72.13,72.37,85,95,0.29,overcast clouds
353,Tiksi,RU,71.69,128.87,21.85,93,100,12.5,overcast clouds
354,Linares,CL,-35.85,-71.6,45.77,93,0,5.88,clear sky
355,Mitsamiouli,KM,-11.38,43.28,82.4,65,20,8.05,few clouds
356,San Lorenzo,PY,-25.33,-57.53,62.6,82,61,3.71,broken clouds
357,Kaeo,NZ,-35.1,173.78,60.01,73,53,11.99,broken clouds
358,Lugovoy,KZ,42.95,72.76,52.27,44,28,5.08,scattered clouds
359,Tucupita,VE,9.06,-62.05,73.18,94,75,1.88,broken clouds
360,Thunder Bay,CA,48.4,-89.32,52.0,53,40,10.29,scattered clouds
361,Catemaco,MX,18.42,-95.12,72.05,86,46,2.44,scattered clouds
362,Nome,US,64.5,-165.41,46.4,52,90,5.82,overcast clouds
363,Ambo,PE,-10.13,-76.2,57.09,63,72,2.39,broken clouds
364,Bonthe,SL,7.53,-12.51,76.35,90,12,4.38,few clouds
365,Savinskiy,RU,62.93,40.14,53.85,90,100,7.87,overcast clouds
366,Shivrajpur,IN,22.42,73.65,91.4,46,7,3.36,clear sky
367,Alice Springs,AU,-23.7,133.88,80.6,10,0,11.41,clear sky
368,Lianyuan,CN,27.69,111.66,74.73,58,53,3.29,broken clouds
369,Grand Forks,US,47.94,-97.43,39.2,86,1,5.82,clear sky
370,Pak Phanang,TH,8.35,100.2,89.6,70,75,4.7,moderate rain
371,Awbari,LY,26.59,12.78,77.49,39,78,13.11,broken clouds
372,Los Llanos De Aridane,ES,28.66,-17.92,71.6,83,75,10.29,broken clouds
373,Geraldton,AU,-28.77,114.6,73.4,53,11,23.04,few clouds
374,Chadiza,ZM,-14.07,32.44,81.36,50,32,4.38,scattered clouds
375,Diamantino,BR,-14.41,-56.45,81.57,40,72,2.71,broken clouds
376,Funadhoo,MV,6.15,73.27,82.9,76,100,13.44,overcast clouds
377,Semnan,IR,35.57,53.4,61.02,37,0,5.55,clear sky
378,Bom Jesus Da Lapa,BR,-13.26,-43.42,75.99,41,12,3.94,few clouds
379,Nizhnevartovsk,RU,60.93,76.55,35.6,69,100,2.24,overcast clouds
380,Muisne,EC,0.6,-80.03,73.26,87,100,4.92,light rain
381,Sitka,US,57.05,-135.33,48.2,61,90,13.87,overcast clouds
382,Dogondoutchi,NE,13.64,4.03,81.07,54,78,7.34,broken clouds
383,Visby,SE,57.64,18.3,53.01,80,100,8.05,overcast clouds
384,Rio Grande,BR,-32.03,-52.1,48.99,93,0,1.01,clear sky
385,Drovyanaya,RU,51.58,113.03,35.6,87,90,11.18,overcast clouds
386,Benemerito De Las Americas,MX,16.52,-90.64,72.66,98,100,0.18,moderate rain
387,Kaitangata,NZ,-46.28,169.85,54.0,81,77,11.99,broken clouds
388,Rio Gallegos,AR,-51.62,-69.22,37.4,74,0,8.05,clear sky
389,Manokwari,ID,-0.87,134.08,83.17,75,93,2.8,overcast clouds
390,Soyo,AO,-6.13,12.37,77.0,88,75,6.93,broken clouds
391,Namatanai,PG,-3.67,152.43,81.55,79,100,5.48,overcast clouds
392,Suez,EG,29.97,32.53,79.59,67,9,10.31,clear sky
393,Manggar,ID,-2.88,108.27,85.57,69,43,10.4,scattered clouds
394,Margate,GB,51.38,1.39,45.0,90,67,3.0,broken clouds
395,Ligayan,PH,4.65,119.47,85.08,66,4,6.78,clear sky
396,Copiapo,CL,-27.37,-70.33,51.8,87,3,4.7,clear sky
397,Emerald,AU,-23.53,148.17,93.2,15,0,4.7,clear sky
398,Biloela,AU,-24.42,150.5,87.44,22,0,2.89,clear sky
399,Russell,US,32.35,-85.2,71.6,94,90,4.7,overcast clouds
400,Phuket,TH,8.0,98.25,82.99,94,75,10.29,moderate rain
401,Charlestown,AU,-32.95,151.67,73.0,39,18,8.3,few clouds
402,Topchikha,RU,52.82,83.12,33.8,74,75,20.13,light snow
403,Meulaboh,ID,4.14,96.13,77.61,85,100,5.86,light rain
404,Bosaso,SO,11.28,49.18,86.0,58,97,6.93,overcast clouds
405,Georgetown,MY,5.41,100.34,87.8,66,20,5.82,few clouds
406,Biasca,CH,46.36,8.97,46.4,100,20,1.12,few clouds
407,Chermoz,RU,58.79,56.15,47.01,82,100,14.99,light rain
408,Sterling,US,39.01,-77.43,60.01,82,75,5.82,broken clouds
409,Bilma,NE,18.69,12.92,85.08,14,0,12.41,clear sky
410,Havelock,US,34.88,-76.9,73.99,88,20,3.36,few clouds
411,Rexburg,US,43.83,-111.79,42.8,48,1,4.94,clear sky
412,Nuuk,GL,64.18,-51.72,53.6,37,98,14.99,overcast clouds
413,Lichinga,MZ,-13.31,35.24,71.6,78,20,12.75,smoke
414,Axim,GH,4.87,-2.24,76.44,88,90,7.94,moderate rain
415,Novyy Urengoy,RU,66.08,76.63,33.26,87,79,5.93,broken clouds
416,Upernavik,GL,72.79,-56.15,35.44,77,0,6.98,clear sky
417,Novo Oriente,BR,-5.53,-40.77,68.07,77,59,2.13,broken clouds
418,Zemio,CF,5.03,25.14,79.12,71,12,1.66,few clouds
419,Mbandaka,CD,0.05,18.26,78.35,75,94,2.39,overcast clouds
420,Srednekolymsk,RU,67.45,153.68,25.2,93,0,3.67,clear sky
421,Kamen-Rybolov,RU,44.75,132.04,59.45,67,0,14.5,clear sky
422,Kargat,RU,55.2,80.28,40.42,89,100,5.48,overcast clouds
423,Presidencia Roque Saenz Pena,AR,-26.79,-60.44,57.76,65,50,3.53,scattered clouds
424,Alushta,UA,44.67,34.42,71.29,56,100,6.82,overcast clouds
425,Lingyuan,CN,41.24,119.4,74.28,20,16,9.13,few clouds
426,Mandera,KE,3.94,41.87,84.51,58,96,9.33,overcast clouds
427,Tweed,CA,44.48,-77.32,62.01,53,100,3.0,overcast clouds
428,Goya,AR,-29.14,-59.26,58.1,57,9,7.7,clear sky
429,Sharqpur,PK,31.46,74.1,89.6,35,0,4.27,haze
430,Cascais,PT,38.7,-9.42,63.0,82,20,19.46,few clouds
431,San Andres,CO,12.58,-81.7,80.6,88,40,4.7,scattered clouds
432,Kawalu,ID,-7.38,108.21,84.11,61,100,7.76,overcast clouds
433,Armeria,MX,18.93,-103.97,77.43,84,6,2.33,clear sky
434,Langsa,ID,4.47,97.97,85.69,68,100,2.21,light rain
435,Taraclia,MD,45.9,28.67,64.85,76,48,7.72,scattered clouds
436,Ancud,CL,-41.87,-73.82,46.0,93,75,3.36,broken clouds
437,Maceio,BR,-9.67,-35.74,73.4,94,20,6.93,few clouds
438,Torbay,CA,47.67,-52.73,43.0,65,90,20.8,overcast clouds
439,Atasu,KZ,48.68,71.64,43.29,57,92,8.86,overcast clouds
440,Nhulunbuy,AU,-12.23,136.77,87.8,55,40,10.29,scattered clouds
441,Joshimath,IN,30.57,79.57,76.12,17,0,7.52,clear sky
442,Fairbanks,US,64.84,-147.72,37.4,64,1,8.05,clear sky
443,Marsa Matruh,EG,31.35,27.25,73.4,64,20,11.18,few clouds
444,Clyde River,CA,70.47,-68.59,32.0,97,90,21.92,light snow
445,Caravelas,BR,-17.71,-39.25,75.15,83,100,11.03,overcast clouds
446,Whitehorse,CA,60.72,-135.05,30.2,80,20,4.7,few clouds
447,Tateyama,JP,34.98,139.87,66.2,88,90,12.75,shower rain
448,Sinnamary,GF,5.38,-52.95,78.19,86,5,7.78,light rain
449,Muros,ES,42.78,-9.06,55.99,83,6,4.0,clear sky
450,Tarko-Sale,RU,64.92,77.78,31.24,96,90,4.05,overcast clouds
451,Lerwick,GB,60.15,-1.15,41.0,86,40,5.82,scattered clouds
452,Hobyo,SO,5.35,48.53,83.41,71,88,12.26,overcast clouds
453,Shirokiy,RU,49.76,129.52,59.31,72,100,6.17,light rain
454,Zonguldak,TR,41.25,31.83,61.9,81,13,4.45,few clouds
455,Krasnovka,RU,48.82,40.09,59.32,54,99,19.39,overcast clouds
456,Sembakung,ID,3.82,117.25,86.16,80,24,3.76,moderate rain
457,Tuatapere,NZ,-46.13,167.68,54.48,73,86,3.36,overcast clouds
458,Lukoyanov,RU,55.03,44.48,54.54,48,100,14.85,overcast clouds
459,Abu Ghosh,IL,31.81,35.11,82.4,74,20,2.24,few clouds
460,Leopold,AU,-38.18,144.47,64.0,67,8,14.99,clear sky
461,San Rafael,AR,-34.62,-68.33,59.02,34,0,6.91,clear sky
462,Ellisras,ZA,-23.66,27.74,84.04,33,0,4.81,clear sky
463,Saint-Denis,FR,48.92,2.33,48.99,93,40,4.7,scattered clouds
464,Itarema,BR,-2.92,-39.92,75.2,88,99,7.63,overcast clouds
465,Vilhena,BR,-12.74,-60.15,78.84,57,96,2.17,overcast clouds
466,Miles City,US,46.41,-105.84,51.8,53,1,10.29,clear sky
467,Oktyabrskoye,RU,43.06,44.74,55.4,87,40,2.24,scattered clouds
468,Sharan,RU,54.82,54.0,49.68,53,100,15.82,overcast clouds
469,Kirakira,SB,-10.45,161.92,81.46,80,20,9.22,few clouds
470,Santa Rosa,PH,14.31,121.11,84.99,83,75,3.36,light intensity shower rain
471,Aksarka,RU,66.56,67.8,37.72,87,100,9.17,overcast clouds
472,Elizabeth City,US,36.29,-76.25,69.8,73,90,5.82,overcast clouds
473,Mamallapuram,IN,12.63,80.17,84.2,66,75,3.36,heavy intensity rain
474,Ardabil,IR,38.25,48.29,46.4,100,40,2.59,mist
475,Hachinohe,JP,40.5,141.5,64.4,72,75,17.22,heavy intensity rain
476,Pimentel,PE,-6.84,-79.93,61.75,91,100,9.01,overcast clouds
477,Tukrah,LY,32.53,20.58,73.02,50,0,9.06,clear sky
478,Dingle,PH,11.0,122.67,84.4,80,100,4.85,heavy intensity rain
479,Byron Bay,AU,-28.65,153.62,71.6,56,2,14.99,clear sky
480,Suluq,LY,31.67,20.25,70.81,55,0,3.53,clear sky
481,Bonnyville,CA,54.27,-110.73,39.2,64,90,11.41,overcast clouds
482,Lavrentiya,RU,65.58,-171.0,38.28,85,100,12.08,overcast clouds
483,Malindi,KE,-3.22,40.12,84.2,66,40,11.41,scattered clouds
484,Xai-Xai,MZ,-25.05,33.64,79.14,52,87,3.44,overcast clouds
485,Bonavista,CA,48.65,-53.11,42.01,68,99,15.99,overcast clouds
486,Canora,CA,51.63,-102.43,32.0,88,1,3.36,clear sky
487,Hirara,JP,24.8,125.28,84.2,74,40,10.29,scattered clouds
488,Santomera,ES,38.06,-1.05,63.0,88,67,1.01,broken clouds
489,Mangrol,IN,21.12,70.12,90.28,50,28,7.56,scattered clouds
490,Nauta,PE,-4.51,-73.58,74.1,75,0,1.1,clear sky
491,Bathsheba,BB,13.22,-59.52,80.6,83,40,13.87,shower rain
492,Uglekamensk,RU,43.22,133.23,61.5,47,0,2.59,clear sky
493,Dongsheng,CN,39.82,109.98,59.83,56,92,15.01,overcast clouds
494,Atar,MR,20.52,-13.05,82.18,20,0,6.26,clear sky
495,Raton,US,36.9,-104.44,54.0,23,1,10.29,clear sky
496,Borger,NL,52.92,6.79,45.0,90,60,3.0,light rain
497,Chuka,KE,-0.33,37.65,78.96,49,7,4.34,clear sky
498,Samarai,PG,-10.62,150.67,79.39,82,18,12.12,few clouds
499,Bairiki,KI,1.33,172.98,82.4,74,90,9.17,overcast clouds
500,Tazovskiy,RU,67.47,78.7,29.66,94,17,8.55,few clouds
501,Sayansk,RU,54.11,102.16,35.78,66,100,8.72,overcast clouds
502,Sarakhs,IR,36.54,61.16,57.2,35,0,4.7,clear sky
503,Constitucion,CL,-35.33,-72.42,51.75,83,0,12.75,clear sky
504,Gweta,BW,-20.18,25.23,86.9,24,0,6.91,clear sky
505,Grootfontein,NA,-19.57,18.12,71.58,22,0,15.7,clear sky
506,Springdale,US,36.19,-94.13,64.4,93,1,3.36,mist
507,Urengoy,RU,65.97,78.37,30.16,94,100,5.59,overcast clouds
508,Batagay,RU,67.63,134.63,27.39,85,100,4.68,overcast clouds
509,Motihari,IN,26.65,84.92,91.51,39,0,6.82,clear sky
510,Canchungo,GW,12.07,-16.03,77.0,100,0,2.24,clear sky
511,Paraibano,BR,-6.43,-43.98,73.72,79,28,9.71,scattered clouds
512,Amontada,BR,-3.36,-39.83,72.93,91,100,3.62,overcast clouds
513,Yerbogachen,RU,61.28,108.01,29.71,87,100,9.73,overcast clouds
514,Beringovskiy,RU,63.05,179.32,41.92,95,100,16.24,light rain
515,Ler,SS,8.3,30.14,80.02,81,32,6.82,scattered clouds
516,Yerofey Pavlovich,RU,53.97,121.97,39.34,82,100,6.49,light rain
517,Hays,US,30.05,-98.03,70.0,94,0,4.38,clear sky
518,Erzin,TR,36.96,36.2,87.01,24,1,5.35,clear sky
519,Beloha,MG,-25.17,45.05,90.9,26,0,8.93,clear sky
520,Bourail,NC,-21.57,165.48,76.89,69,28,3.24,scattered clouds
521,Berbera,SO,10.44,45.01,86.83,52,0,6.46,clear sky
522,Petropavlovsk-Kamchatskiy,RU,53.05,158.65,53.6,32,0,11.18,clear sky
523,Kozan,TR,37.46,35.82,87.01,17,38,16.11,scattered clouds
524,Cabo San Lucas,MX,22.89,-109.91,78.01,86,0,4.21,clear sky
525,Pokhara,NP,28.23,83.98,84.63,48,0,5.86,clear sky
526,Sile,TR,41.18,29.61,66.2,82,40,4.7,scattered clouds
527,Loubomo,CG,-4.2,12.67,74.12,85,100,4.65,overcast clouds
528,San Quintin,MX,30.48,-115.95,67.41,84,95,13.02,overcast clouds
529,Parabel,RU,58.7,81.48,34.07,86,100,4.81,overcast clouds
530,Krasnoselkup,RU,65.7,82.47,23.11,96,0,6.26,clear sky
531,Nelson Bay,AU,-32.72,152.15,73.4,25,0,9.17,clear sky
532,Raudeberg,NO,61.99,5.14,46.99,86,93,13.87,overcast clouds
533,Adrar,MR,20.5,-10.07,79.9,20,0,4.47,clear sky
534,Luau,AO,-10.71,22.22,72.82,74,8,4.43,light rain
535,Ruidoso,US,33.33,-105.67,59.0,19,1,3.36,clear sky
536,Bintulu,MY,3.17,113.03,87.8,74,40,1.12,scattered clouds
537,Port Keats,AU,-14.25,129.55,88.7,53,11,9.69,few clouds
538,Havre-Saint-Pierre,CA,50.23,-63.6,33.8,64,1,10.29,clear sky
539,Dzaoudzi,YT,-12.79,45.27,84.2,70,0,5.82,clear sky
540,Spasskoye,RU,44.61,132.8,60.17,54,0,6.96,clear sky
541,Monte Carmelo,BR,-18.72,-47.5,71.98,60,100,2.1,overcast clouds
542,Chissamba,AO,-12.17,17.33,64.4,82,0,5.82,clear sky
543,Rundu,NA,-17.93,19.77,79.23,18,0,4.56,clear sky
544,Sao Raimundo Das Mangabeiras,BR,-7.02,-45.48,77.0,69,0,3.22,clear sky
545,Oranjemund,NA,-28.55,16.43,59.94,49,0,15.05,clear sky
546,Basoko,CD,1.24,23.62,76.59,79,77,3.15,broken clouds
547,Baijiantan,CN,45.63,85.18,52.12,43,12,7.85,few clouds
548,Pontianak,ID,-0.03,109.33,85.6,66,100,3.96,light rain
549,Calabozo,VE,8.92,-67.43,73.27,96,100,2.93,overcast clouds
550,Poum,NC,-20.23,164.02,76.62,78,2,9.69,clear sky
551,Dabat,ET,12.98,37.77,63.18,46,0,10.29,clear sky
552,Baoying,CN,33.23,119.31,74.37,44,0,8.7,clear sky
553,Brasy,CZ,49.84,13.58,55.0,100,100,8.41,light rain
554,Tomatlan,MX,19.93,-105.25,77.22,87,90,1.66,overcast clouds
555,Broome,US,42.25,-75.83,55.99,54,1,6.93,clear sky
556,Iisalmi,FI,63.56,27.19,50.0,76,90,13.87,overcast clouds
557,Stepanov,CZ,49.68,17.22,51.01,92,100,5.73,overcast clouds
558,Coahuayana,MX,18.73,-103.68,77.29,84,33,2.01,scattered clouds
559,Henties Bay,NA,-22.12,14.28,55.99,86,13,5.01,few clouds
560,Bertoua,CM,4.58,13.68,68.4,96,100,2.17,overcast clouds
561,Nizwa,OM,22.93,57.53,92.26,14,0,6.87,clear sky
562,Santa Cruz De Tenerife,ES,28.47,-16.25,69.01,100,75,13.87,broken clouds
563,Ust-Katav,RU,54.94,58.17,47.57,54,99,11.27,light rain
564,Gao,ML,16.64,1.64,85.62,48,71,8.52,broken clouds
565,Lac-Megantic,CA,45.58,-70.88,46.99,69,100,6.98,overcast clouds
566,Santander,ES,43.46,-3.8,60.01,93,90,5.82,overcast clouds
567,Puerto Carreno,CO,6.19,-67.49,72.82,94,100,7.38,moderate rain
568,Anahuac,MX,27.23,-100.15,78.44,40,0,6.02,clear sky
569,Manpur,IN,22.43,75.62,89.6,33,20,9.17,haze
570,Tessalit,ML,20.2,1.01,85.21,13,0,8.05,clear sky
571,Sao Filipe,CV,14.9,-24.5,80.55,76,0,7.27,clear sky
572,Cidreira,BR,-30.18,-50.21,58.66,80,0,12.41,clear sky
573,Tezu,IN,27.92,96.17,92.3,46,0,3.44,clear sky
574,Ivesti,RO,45.68,27.52,61.74,79,91,12.08,overcast clouds
575,Shitanjing,CN,39.23,106.34,63.45,36,96,0.31,overcast clouds
576,Paamiut,GL,61.99,-49.67,46.27,60,99,39.28,overcast clouds
577,Hualmay,PE,-11.1,-77.61,60.64,85,87,3.09,overcast clouds
578,Marzuq,YE,14.4,46.47,80.4,18,21,10.27,few clouds
579,Lucapa,AO,-8.42,20.74,75.92,71,99,2.33,overcast clouds
580,Maldonado,UY,-34.67,-54.92,51.8,76,20,6.93,few clouds
581,Shenjiamen,CN,29.96,122.3,69.44,73,18,14.03,few clouds
582,Hofn,IS,64.25,-15.21,41.99,64,0,18.1,clear sky
583,Nyurba,RU,63.28,118.33,32.61,75,2,6.73,clear sky
584,Mfou,CM,3.72,11.64,69.8,100,75,1.81,broken clouds
585,Sibolga,ID,1.74,98.78,78.82,85,100,11.88,moderate rain
586,Saint-Remi,CA,45.27,-73.62,55.0,76,100,4.0,overcast clouds
587,Lahaina,US,20.88,-156.68,80.6,61,1,11.41,clear sky
588,Trang,TH,7.5,99.5,87.8,70,40,10.29,very heavy rain
589,Vagay,RU,57.94,69.02,43.38,95,100,5.21,overcast clouds
590,Riosucio,CO,5.42,-75.7,58.26,90,79,1.25,broken clouds
591,Malihabad,IN,26.92,80.72,93.2,44,0,2.24,haze
592,Pacific Grove,US,36.62,-121.92,59.0,87,1,1.07,clear sky
593,Nyagan,RU,62.14,65.39,43.5,97,100,4.18,light rain
594,Cap Malheureux,MU,-19.98,57.61,81.0,70,0,8.01,clear sky
595,Black River,JM,18.03,-77.85,78.8,88,20,4.7,few clouds
596,Hami,CN,42.8,93.45,59.72,29,0,12.57,clear sky
597,Agira,IT,37.66,14.52,64.0,100,0,5.82,clear sky
598,Sabaudia,IT,41.3,13.03,68.0,99,0,3.15,clear sky
599,Neiafu,TO,-18.65,-173.98,77.0,88,40,8.05,scattered clouds
600,Harer,ET,9.31,42.13,75.0,30,0,9.17,clear sky
601,Beipiao,CN,41.79,120.78,76.6,19,83,10.67,broken clouds
602,Miyazu,JP,35.53,135.18,68.0,88,75,9.17,broken clouds
603,Nenjiang,CN,49.18,125.22,57.56,54,0,7.74,clear sky
604,Muswellbrook,AU,-32.27,150.9,78.01,10,0,5.01,clear sky
605,Cizre,TR,37.33,42.19,69.8,28,5,4.7,clear sky
606,Bardiyah,LY,31.76,25.09,74.53,59,8,10.04,clear sky
607,Gornopravdinsk,RU,60.05,69.9,40.32,94,100,5.82,overcast clouds
608,Panique,PH,12.48,122.02,82.56,76,100,2.77,light rain
609,Kampot,KH,10.62,104.18,84.2,88,75,5.82,heavy intensity rain
610,Inuvik,CA,68.35,-133.72,28.4,92,90,3.36,mist
611,Hay River,CA,60.82,-115.8,37.4,100,75,6.93,broken clouds
612,Cayenne,GF,4.93,-52.33,73.4,100,0,8.03,clear sky
613,Boysun,UZ,38.21,67.2,44.91,76,99,3.04,overcast clouds
614,Biltine,TD,14.53,20.92,89.53,14,0,10.04,clear sky
615,Orbetello,IT,42.44,11.22,55.4,24,0,5.26,clear sky
616,Maamba,ZM,-17.37,27.15,87.44,37,0,4.36,clear sky
617,Coquimbo,CL,-29.95,-71.34,51.8,93,46,4.7,scattered clouds
618,Faanui,PF,-16.48,-151.75,79.18,78,4,17.9,clear sky
619,Tucurui,BR,-3.77,-49.67,74.55,88,59,4.12,broken clouds
620,Tiarei,PF,-17.53,-149.33,80.6,61,20,9.17,few clouds
621,Luangwa,ZM,-15.62,30.42,93.13,37,92,3.51,overcast clouds
622,Belaya Gora,RU,68.53,146.42,27.93,90,99,5.84,overcast clouds
623,Jinchang,CN,38.5,102.17,55.69,34,61,27.81,broken clouds
624,Vocklabruck,AT,48.02,13.65,52.0,89,17,4.56,few clouds
625,Buala,SB,-8.14,159.59,82.78,78,61,10.94,broken clouds
626,Jega,NG,12.22,4.38,78.75,69,74,6.04,broken clouds
627,Kloulklubed,PW,7.04,134.26,82.4,83,75,4.7,shower rain
628,Anton Lizardo,MX,19.05,-95.98,78.01,70,94,3.49,light rain
629,Wanlaweyn,SO,2.62,44.89,85.95,57,56,9.4,broken clouds
630,Mandal,IN,25.45,74.57,94.03,16,7,7.99,clear sky
631,Witu,KE,-2.39,40.44,84.2,62,1,11.41,clear sky
632,Constanza,DE,47.66,9.18,53.6,93,90,1.12,moderate rain
633,Sokolo,ML,14.73,-6.12,83.55,51,0,7.29,clear sky
634,Oriximina,BR,-1.77,-55.87,80.01,59,100,2.77,overcast clouds
635,Avera,US,33.19,-82.53,73.4,89,90,6.93,overcast clouds
636,San Policarpo,PH,12.18,125.51,82.4,81,100,7.0,moderate rain
637,Afzalgarh,IN,29.4,78.68,90.03,33,0,5.97,clear sky
638,Myitkyina,MM,25.38,97.4,95.58,45,0,2.68,clear sky
639,Marawi,PH,8.0,124.29,77.81,85,100,1.99,light rain
640,Abaete,BR,-19.16,-45.45,75.11,59,32,3.49,scattered clouds
641,Codajas,BR,-3.84,-62.06,75.02,75,17,0.96,few clouds
642,Ereymentau,KZ,51.62,73.1,38.08,86,100,14.9,overcast clouds
643,Naron,ES,43.52,-8.15,55.4,87,40,4.7,scattered clouds
644,Naze,JP,28.37,129.48,82.4,69,75,10.29,broken clouds
645,Plainview,US,40.78,-73.47,62.01,63,1,10.29,clear sky
646,Amapa,BR,1.0,-52.0,70.02,98,2,1.5,clear sky
647,Swellendam,ZA,-34.02,20.44,62.6,48,12,16.11,light rain
648,Monrovia,LR,6.3,-10.8,77.02,87,100,5.46,moderate rain
649,Bogorodskoye,RU,56.55,37.88,52.61,83,93,5.57,overcast clouds
650,Port Blair,IN,11.67,92.75,82.22,80,100,17.56,light rain
651,Khvoynaya,RU,58.9,34.53,54.1,86,95,7.0,overcast clouds
652,Maloy,NO,61.94,5.11,46.99,86,94,6.93,overcast clouds
653,Ushtobe,KZ,45.25,77.98,51.1,40,0,10.22,clear sky
654,Acari,PE,-15.43,-74.62,62.8,68,28,0.58,scattered clouds
655,Saldanha,ZA,-33.01,17.94,57.2,54,0,10.29,clear sky
656,Nogliki,RU,51.83,143.17,51.82,63,0,5.95,clear sky
657,Damaturu,NG,11.75,11.96,82.71,61,5,7.78,clear sky
658,Tilichiki,RU,60.47,166.1,30.51,95,100,20.98,overcast clouds
659,Labuhan,ID,-6.88,112.21,85.08,69,100,15.52,heavy intensity rain
660,Yeppoon,AU,-23.13,150.73,86.0,40,0,6.93,clear sky
661,Okha,RU,53.57,142.95,48.16,68,0,7.34,clear sky
662,Wanaraja,ID,-7.17,107.98,83.64,54,92,5.82,overcast clouds
663,Wattegama,LK,6.8,81.48,89.6,66,75,23.04,broken clouds
664,Yumen,CN,40.28,97.2,53.62,36,50,14.58,scattered clouds
665,Surt,LY,31.21,16.59,72.48,70,33,8.05,scattered clouds
666,Staryy Nadym,RU,65.61,72.68,34.74,85,74,13.6,broken clouds
667,Odweyne,SO,9.41,45.06,84.81,19,7,5.97,clear sky
668,Homer,US,59.64,-151.55,42.01,93,20,3.53,few clouds
669,Kodinsk,RU,58.69,99.18,35.04,83,100,8.05,overcast clouds
670,Ayagoz,KZ,47.97,80.44,42.6,48,10,6.31,clear sky
671,Fallon,US,39.47,-118.78,59.0,34,1,8.05,clear sky
672,Aswan,EG,24.09,32.91,98.49,11,0,7.05,clear sky
673,Chapais,CA,49.78,-74.85,35.6,93,90,9.17,light rain
674,Montrose,US,38.42,-108.27,57.99,30,1,9.17,clear sky
675,Omboue,GA,-1.57,9.26,77.83,83,100,9.53,overcast clouds
676,Bismarck,US,46.81,-100.78,46.4,65,1,4.38,clear sky
677,Alyangula,AU,-13.85,136.42,91.4,41,14,10.29,few clouds
678,Eidsvoll,NO,60.33,11.26,44.01,100,75,5.82,light rain
679,Asilah,MA,35.47,-6.03,66.2,82,73,10.29,broken clouds
680,Katesh,TZ,-4.52,35.38,76.26,36,43,5.59,scattered clouds
681,Bogale,MM,16.28,95.4,83.77,75,87,13.73,overcast clouds
682,Gimli,CA,50.63,-96.99,39.0,99,100,7.0,overcast clouds
683,Roald,NO,62.58,6.13,44.6,93,98,12.75,overcast clouds
684,Gannan,CN,47.91,123.5,62.55,41,0,7.43,clear sky
685,Qandala,SO,11.47,49.87,84.74,41,70,6.69,broken clouds
686,Kununurra,AU,-15.77,128.73,98.6,23,40,10.29,scattered clouds
687,Vila Velha,BR,-20.33,-40.29,77.0,88,40,4.7,scattered clouds
688,Maniwaki,CA,46.38,-75.97,49.71,87,100,8.52,overcast clouds
689,Tashla,RU,51.77,52.74,52.54,37,11,9.66,few clouds
690,Quang Ngai,VN,15.12,108.8,80.69,86,100,10.0,light rain
691,Kulhudhuffushi,MV,6.62,73.07,82.74,77,99,13.89,overcast clouds
692,Farafenni,GM,13.57,-15.6,75.4,96,15,4.79,few clouds
693,Sept-Iles,CA,50.2,-66.38,35.01,79,5,3.36,clear sky
694,Nova Russas,BR,-4.71,-40.56,67.3,93,8,3.24,clear sky
695,Chalmette,US,29.94,-89.96,79.0,88,90,26.4,overcast clouds
696,Bridgetown,BB,13.1,-59.62,80.6,83,40,13.87,shower rain
697,Tambun,ID,-6.26,107.07,89.01,62,40,3.36,moderate rain
698,Briancon,FR,44.9,6.65,51.01,89,8,1.01,clear sky
699,Pahrump,US,36.21,-115.98,62.01,26,100,4.76,overcast clouds
700,Portland,US,45.52,-122.68,60.01,86,100,3.0,light rain
701,Grants Pass,US,42.44,-123.33,64.4,52,40,4.7,scattered clouds
702,Wiarton,CA,44.74,-81.13,69.8,52,40,23.04,scattered clouds
